{
  "id": "barcelona",
  "name": "바르셀로나",
  "country": "스페인",
  "description": "가우디의 환상적인 건축물과 카탈루냐 문화의 자부심이 넘치는 지중해 항구 도시로, 열정적인 거리 문화와 세계적 수준의 음식이 방문자를 매혹시킨다. 해변과 도시가 하나로 이어지는 독특한 매력을 가진 곳이다.",
  "seasons": {
    "spring": {"icon": "🌸", "text": "4~5월 날씨가 온화하고 관광객도 비교적 적어 가우디 건축물을 여유롭게 관람하기 최적이다. 람블라스 거리 노천 카페 문화가 시작된다."},
    "summer": {"icon": "☀️", "text": "6~8월 바르셀로네타 해변이 최성수기를 맞이하며 야간 야외 콘서트와 광장 축제가 활발하다. 더위 속에서도 상그리아 한 잔이면 충분하다."},
    "autumn": {"icon": "🍂", "text": "9~10월 관광 성수기가 지나 쾌적하게 여행할 수 있다. 보케리아 시장 제철 식재료가 풍성하고 와인 페스티벌이 열린다."},
    "winter": {"icon": "❄️", "text": "12~2월 겨울에도 비교적 온화한 날씨. 사그라다 파밀리아 야간 조명과 고딕 지구의 크리스마스 마켓이 낭만적이다."}
  },
  "senses": {
    "sight": "사그라다 파밀리아 스테인드글라스를 통해 쏟아지는 오색 빛과 가우디 특유의 유기적 석조 첨탑의 황홀한 조화",
    "sound": "람블라스 거리 인간 조각상과 플라멩코 리듬, 바르셀로네타 해변에서 들려오는 파도 소리",
    "smell": "보케리아 시장 입구에서 풍겨오는 신선한 토마토와 하몬 이베리코, 갓 만든 추로스 향"
  },
  "map": {
    "lat": 41.3851,
    "lng": 2.1734,
    "zoom": 13,
    "legend": [
      {"c": "#C4704B", "l": "주요 명소"},
      {"c": "#7A9A7E", "l": "로컬 골목"}
    ],
    "pins": [
      {
        "lat": 41.4036,
        "lng": 2.1744,
        "color": "#C4704B",
        "num": 1,
        "name": "사그라다 파밀리아 (Sagrada Família)",
        "time": "오전 9시",
        "note": "가우디의 미완성 걸작. 오전 빛이 스테인드글라스를 통해 내부를 채울 때가 가장 아름답다. 사전 예약 필수."
      },
      {
        "lat": 41.3817,
        "lng": 2.1720,
        "color": "#7A9A7E",
        "num": 2,
        "name": "보케리아 시장 (La Boqueria)",
        "time": "오전 10시",
        "note": "람블라스 거리 최고의 재래시장. 신선한 과일 주스와 하몬, 타파스를 맛볼 것."
      },
      {
        "lat": 41.3916,
        "lng": 2.1650,
        "color": "#C4704B",
        "num": 3,
        "name": "카사 바트요 (Casa Batlló)",
        "time": "오후 5시",
        "note": "가우디의 용 등 지붕 건물. 야간 조명 투어 'Magic Nights'가 특히 인상적이다."
      },
      {
        "lat": 41.3833,
        "lng": 2.1771,
        "color": "#7A9A7E",
        "num": 4,
        "name": "고딕 지구 (Barri Gòtic)",
        "time": "오전 11시",
        "note": "로마 시대 성벽 위에 세워진 중세 골목. 바르셀로나 대성당과 왕의 광장을 탐방할 것."
      },
      {
        "lat": 41.3789,
        "lng": 2.1898,
        "color": "#C4704B",
        "num": 5,
        "name": "바르셀로네타 해변 (Barceloneta)",
        "time": "오후 3시",
        "note": "도심에서 걸어서 갈 수 있는 지중해 해변. 파에야와 상그리아를 즐기며 석양을 감상할 것."
      },
      {
        "lat": 41.3994,
        "lng": 2.1537,
        "color": "#7A9A7E",
        "num": 6,
        "name": "그라시아 구역 (Gràcia)",
        "time": "오후 4시",
        "note": "바르셀로나 현지인들의 동네. 독립 카페와 빈티지숍, 소규모 광장이 매력적이다."
      },
      {
        "lat": 41.3848,
        "lng": 2.1823,
        "color": "#7A9A7E",
        "num": 7,
        "name": "엘 보른 (El Born)",
        "time": "오후 6시",
        "note": "트렌디한 바와 부티크가 밀집한 창의 지구. 피카소 미술관과 산타 마리아 델 마르 성당이 있다."
      }
    ]
  }
}
