{
  "id": "hawaii",
  "name": "하와이",
  "country": "미국",
  "description": "태평양 한가운데 피어난 화산 제도로, 와이키키 비치의 서퍼 문화, 훌라 댄스와 마카이 음식 문화, 그리고 루아우 파티의 열대 낭만이 공존한다. 알로하 정신이 살아 있는 하와이는 자연·문화·힐링이 완벽하게 조화된 지상 낙원이다.",
  "seasons": {
    "spring": {"icon": "🌸", "text": "3~5월 관광 비수기 시작으로 숙박비가 저렴하다. 날씨는 완벽하며 혹등고래 관찰(2~4월)과 플루메리아 꽃이 절정이다."},
    "summer": {"icon": "☀️", "text": "6~8월 하와이 최대 성수기. 와이키키 비치와 노스쇼어 서핑이 절정이며, 킹 카메하메하 데이(6월 11일) 퍼레이드가 볼거리."},
    "autumn": {"icon": "🍂", "text": "9~11월 비수기로 인파가 줄고 숙박비가 내려간다. 알로하 페스티벌(9월)과 아이언맨 트라이애슬론(10월 빅아일랜드)이 열린다."},
    "winter": {"icon": "❄️", "text": "12~2월 노스쇼어 겨울 파도가 세계적인 서퍼들을 불러 모으며, 하와이 최고 규모 파이프라인 서핑 대회가 열린다."}
  },
  "senses": {
    "sight": "다이아몬드 헤드 정상에서 내려다보는 와이키키 비치 에메랄드빛 파도와 호놀룰루 시가지 파노라마",
    "sound": "와이키키 비치 우쿨렐레 반주와 함께 들려오는 하와이안 슬랙 키 기타 선율, 파도가 부서지는 소리",
    "smell": "카일루아 타운 아침 빵집에서 풍기는 말라사다(포르투갈식 도넛)와 코나 커피 향기, 플루메리아 꽃향기"
  },
  "map": {
    "lat": 21.3069,
    "lng": -157.8583,
    "zoom": 11,
    "legend": [
      {"c": "#C4704B", "l": "주요 명소"},
      {"c": "#7A9A7E", "l": "로컬 골목"}
    ],
    "pins": [
      {
        "lat": 21.2793,
        "lng": -157.8293,
        "color": "#C4704B",
        "num": 1,
        "name": "와이키키 비치 (Waikiki Beach)",
        "time": "오전 8시",
        "note": "하와이 최고의 해변. 서핑 레슨·카약·스탠드업 패들 보드를 즐기고 선셋 크루즈도 추천."
      },
      {
        "lat": 21.2630,
        "lng": -157.8056,
        "color": "#C4704B",
        "num": 2,
        "name": "다이아몬드 헤드 (Diamond Head)",
        "time": "오전 7시",
        "note": "와이키키 배경의 상징적인 화산 분화구. 1.6km 하이킹 후 정상에서 호놀룰루 360도 전경 감상."
      },
      {
        "lat": 21.3113,
        "lng": -157.8624,
        "color": "#7A9A7E",
        "num": 3,
        "name": "호놀룰루 차이나타운 (Chinatown)",
        "time": "오전 10시",
        "note": "하와이 다문화 요리와 파머스 마켓, 갤러리가 혼재하는 힙한 지구. 아침 딤섬이 유명하다."
      },
      {
        "lat": 21.6447,
        "lng": -158.0624,
        "color": "#7A9A7E",
        "num": 4,
        "name": "노스쇼어 (North Shore)",
        "time": "오전 9시",
        "note": "겨울 세계 최고 파도가 몰리는 서퍼들의 성지. 마타이코 베이와 파이프라인이 유명하다."
      },
      {
        "lat": 21.3314,
        "lng": -157.8016,
        "color": "#C4704B",
        "num": 5,
        "name": "마노아 폭포 (Manoa Falls)",
        "time": "오전 8시",
        "note": "호놀룰루 도심 근처 울창한 열대 우림 속 40m 폭포. 왕복 3km 하이킹 코스가 아름답다."
      },
      {
        "lat": 21.2930,
        "lng": -157.8441,
        "color": "#C4704B",
        "num": 6,
        "name": "알라모아나 쇼핑센터 (Ala Moana Center)",
        "time": "오후 2시",
        "note": "세계 최대 야외 쇼핑몰. 알라모아나 비치 파크와 연결되어 쇼핑 후 해변 산책이 가능하다."
      },
      {
        "lat": 21.5946,
        "lng": -158.1074,
        "color": "#7A9A7E",
        "num": 7,
        "name": "할레이바 마을 (Haleiwa Town)",
        "time": "오전 11시",
        "note": "노스쇼어 히피 감성 서핑 마을. 마쓰모토 셰이브 아이스와 신선한 아히 포케 타코가 명물."
      }
    ]
  }
}
