{
  "id": "istanbul",
  "name": "이스탄불",
  "country": "튀르키예",
  "description": "유럽과 아시아 두 대륙에 걸쳐 있는 세계 유일의 도시로, 비잔틴·오스만 제국의 유산이 살아 숨 쉬는 문명의 교차로다. 보스포루스 해협을 가로지르는 풍경과 그랜드 바자르의 활기, 진한 튀르크 커피 한 잔이 여행자를 매혹시킨다.",
  "seasons": {
    "spring": {"icon": "🌸", "text": "4~5월 툴립 페스티벌로 도심 공원이 형형색색으로 물들며, 보스포루스 크루즈를 즐기기 가장 쾌적한 계절이다."},
    "summer": {"icon": "☀️", "text": "6~8월 더위가 강하지만 보스포루스 해변과 프린세스 제도 피크닉이 현지인들에게 인기다. 야간 관광이 더 쾌적하다."},
    "autumn": {"icon": "🍂", "text": "9~10월 이스탄불 방문 최적기. 선선한 날씨에 아야 소피아와 블루 모스크를 여유롭게 관람할 수 있다."},
    "winter": {"icon": "❄️", "text": "12~2월 눈 덮인 아야 소피아와 그랜드 바자르의 따뜻한 차이(홍차) 한 잔이 특별한 겨울 여행을 만든다."}
  },
  "senses": {
    "sight": "갈라타 탑에서 내려다보는 보스포루스 해협과 아시아·유럽 양 대륙을 가로지르는 다리, 그리고 황혼 속 모스크 미나렛의 실루엣",
    "sound": "이슬람 하루 다섯 번의 에잔(기도 소리)이 황금뿔만 위로 울려 퍼지고 그랜드 바자르 상인들의 터키어 흥정 소리",
    "smell": "스파이스 바자르 입구에서 퍼지는 진한 향신료 향과 시나몬, 튀르크 커피와 석류 주스 향기"
  },
  "map": {
    "lat": 41.0082,
    "lng": 28.9784,
    "zoom": 13,
    "legend": [
      {"c": "#C4704B", "l": "주요 명소"},
      {"c": "#7A9A7E", "l": "로컬 골목"}
    ],
    "pins": [
      {
        "lat": 41.0086,
        "lng": 28.9802,
        "color": "#C4704B",
        "num": 1,
        "name": "아야 소피아 (Ayasofya)",
        "time": "오전 9시",
        "note": "537년 완공된 비잔틴 황제의 성당. 비잔틴 모자이크와 오스만 이슬람 장식이 공존하는 세계유산."
      },
      {
        "lat": 41.0109,
        "lng": 28.9682,
        "color": "#7A9A7E",
        "num": 2,
        "name": "그랜드 바자르 (Kapalıçarşı)",
        "time": "오전 11시",
        "note": "4,000개 이상의 점포가 미로처럼 얽힌 세계 최대 지붕 달린 시장. 카펫·금·도자기 흥정 문화 체험."
      },
      {
        "lat": 41.0369,
        "lng": 28.9851,
        "color": "#C4704B",
        "num": 3,
        "name": "탁심 광장 (Taksim Meydanı)",
        "time": "오후 5시",
        "note": "이스탄불 현대 문화의 중심. 이스티클랄 거리를 따라 카페·서점·갤러리가 이어진다."
      },
      {
        "lat": 41.0257,
        "lng": 28.9741,
        "color": "#C4704B",
        "num": 4,
        "name": "갈라타 탑 (Galata Kulesi)",
        "time": "오후 6시",
        "note": "제노바가 건설한 14세기 탑. 전망대에서 보스포루스와 이스탄불 전경을 360도로 감상할 수 있다."
      },
      {
        "lat": 40.9904,
        "lng": 29.0269,
        "color": "#7A9A7E",
        "num": 5,
        "name": "카드쾨이 (Kadıköy)",
        "time": "오후 3시",
        "note": "아시아 대륙의 힙한 지역. 현지인들의 카페·고메 식당·시장이 밀집해 있으며 페리로 이동 가능."
      },
      {
        "lat": 41.0180,
        "lng": 28.9647,
        "color": "#C4704B",
        "num": 6,
        "name": "보스포루스 유람선 (Boğaz Turu)",
        "time": "오후 2시",
        "note": "아시아와 유럽 두 대륙을 잇는 해협을 배로 감상. 오스만 시대 수상 별장 얄리가 볼거리."
      },
      {
        "lat": 41.0165,
        "lng": 28.9710,
        "color": "#7A9A7E",
        "num": 7,
        "name": "스파이스 바자르 (Mısır Çarşısı)",
        "time": "오전 10시",
        "note": "이집션 바자르라고도 불리며 향신료·터키 로쿰·건조 과일을 합리적인 가격에 구입할 수 있다."
      }
    ]
  }
}
