{
  "id": "morocco",
  "name": "마라케시",
  "country": "모로코",
  "description": "사하라 사막 관문인 붉은 도시 마라케시는 수천 개의 골목이 얽힌 메디나와 세계 최대 광장 자마 엘프나의 활기, 향신료와 천연 염료가 넘치는 수크 시장이 여행자를 중세 아랍 세계로 초대한다. 인류무형문화유산인 그나와 음악과 뜨거운 민트차 한 잔이 모든 것을 풀어준다.",
  "seasons": {
    "spring": {"icon": "🌸", "text": "3~5월 마라케시 방문 최적기. 아가베와 장미 정원이 만개하며, 사막 사파리와 아틀라스 산맥 트레킹에 이상적인 날씨다."},
    "summer": {"icon": "☀️", "text": "6~8월 극도로 무덥지만(40도 이상) 메디나 골목은 그늘이 있어 견딜 만하다. 해안 도시 에사우이라로 이동하면 시원하다."},
    "autumn": {"icon": "🍂", "text": "9~11월 날씨가 쾌적해져 사막 여행과 아틀라스 산맥 트레킹이 다시 가능해진다. 올리브 수확 시즌으로 현지 식재료가 풍성하다."},
    "winter": {"icon": "❄️", "text": "12~2월 밤에 쌀쌀하지만 낮에는 온화하다. 아틀라스 산맥에는 눈이 쌓여 스키가 가능하며, 관광객도 줄어 여유롭다."}
  },
  "senses": {
    "sight": "자마 엘프나 광장 옥상 카페에서 내려다보는 뱀 부리기 광대·헤나 아티스트·주스 가판대로 가득 찬 현란한 광장 전경",
    "sound": "일몰 무렵 광장에 모여드는 그나와 음악가들의 금속 심벌 카르카바와 구엠브리 현악기 소리, 구석구석 아잔 소리",
    "smell": "염색 장인들의 타닝 지구 쿠베 수크에서 풍기는 사프란·계피·큐민 향신료 향과 아르간 오일 냄새"
  },
  "map": {
    "lat": 31.6295,
    "lng": -7.9811,
    "zoom": 13,
    "legend": [
      {"c": "#C4704B", "l": "주요 명소"},
      {"c": "#7A9A7E", "l": "로컬 골목"}
    ],
    "pins": [
      {
        "lat": 31.6260,
        "lng": -7.9891,
        "color": "#C4704B",
        "num": 1,
        "name": "자마 엘프나 광장 (Jemaa el-Fna)",
        "time": "오후 5시",
        "note": "유네스코 무형문화유산 광장. 일몰 후 음식 노점 수백 개가 열리며 광장 전체가 야시장으로 변한다."
      },
      {
        "lat": 31.6237,
        "lng": -7.9928,
        "color": "#C4704B",
        "num": 2,
        "name": "쿠투비아 모스크 (Koutoubia Mosque)",
        "time": "오전 9시",
        "note": "마라케시 상징 77m 미나렛. 비무슬림은 내부 입장 불가하지만 외부 정원에서 감상할 것."
      },
      {
        "lat": 31.6316,
        "lng": -7.9899,
        "color": "#7A9A7E",
        "num": 3,
        "name": "마라케시 메디나 수크 (Médina Souks)",
        "time": "오전 10시",
        "note": "기능별로 구역화된 미로형 전통 시장. 향신료·천연 염료·가죽 제품·랜턴 골목이 각각 분리되어 있다."
      },
      {
        "lat": 31.6291,
        "lng": -7.9891,
        "color": "#7A9A7E",
        "num": 4,
        "name": "다이라바 수크 (Dyers' Souk)",
        "time": "오전 11시",
        "note": "빨강·파랑·노랑 천연 염색실로 물든 골목. 형형색색 직물이 건물 사이 빨랫줄에 매달려 있다."
      },
      {
        "lat": 31.6413,
        "lng": -8.0074,
        "color": "#C4704B",
        "num": 5,
        "name": "마조렐 정원 (Jardin Majorelle)",
        "time": "오전 9시",
        "note": "이브 생 로랑이 사랑한 코발트 블루 빌라 정원. 희귀 선인장과 베르베르 미술관이 있다."
      },
      {
        "lat": 31.5085,
        "lng": -9.7596,
        "color": "#7A9A7E",
        "num": 6,
        "name": "에사우이라 해변 (Essaouira)",
        "time": "오전 10시",
        "note": "마라케시에서 버스 3시간 거리 대서양 해안 도시. 강한 바람과 흰 성벽, 신선한 생선 구이가 명물."
      },
      {
        "lat": 31.0470,
        "lng": -7.1238,
        "color": "#C4704B",
        "num": 7,
        "name": "아이트 벤하두 (Aït Benhaddou)",
        "time": "오전 9시",
        "note": "글래디에이터·왕좌의 게임 촬영지로 유명한 유네스코 세계유산 크사르(요새 마을). 마라케시에서 당일치기 가능."
      }
    ]
  }
}
