{
  "id": "prague",
  "name": "프라하",
  "country": "체코",
  "description": "중세 고딕 건축과 바로크 궁전이 완벽하게 보존된 '백탑의 도시'로, 블타바강이 감싸 안은 붉은 지붕 스카이라인은 유럽에서 가장 아름다운 도시 경관으로 손꼽힌다. 체코 맥주 문화와 저렴한 물가가 장기 여행자들에게 특히 사랑받는다.",
  "seasons": {
    "spring": {"icon": "🌸", "text": "4~5월 프라하 봄 음악제가 열리고 페트린 언덕 벚꽃과 레트나 공원이 아름답게 물든다. 구시가지 광장 야외 카페가 부활한다."},
    "summer": {"icon": "☀️", "text": "6~8월 블타바강 유람선과 야간 프라하 성 조명이 여름 밤을 특별하게 만든다. 성수기이므로 주요 명소 사전 예약을 권한다."},
    "autumn": {"icon": "🍂", "text": "9~10월 레트나 공원 단풍과 말라 스트라나 골목이 황금빛으로 물들며, 관광 성수기 이후 조용하게 프라하를 즐기기 좋다."},
    "winter": {"icon": "❄️", "text": "12월 구시가지 광장 크리스마스 마켓이 동화 속 풍경을 연출하며, 눈 덮인 프라하 성의 야경이 압도적이다."}
  },
  "senses": {
    "sight": "레트나 공원 언덕에서 내려다보는 블타바강과 붉은 지붕 프라하 구시가지 전경, 그리고 아득히 솟은 프라하 성 실루엣",
    "sound": "구시가지 광장 천문 시계 정각마다 울리는 종소리와 카를 교 위 버스커의 첼로 선율",
    "smell": "트르들로(굴뚝 케이크) 굽는 계피 향기와 체코 맥주 호르스트의 홉 향이 어우러진 광장의 공기"
  },
  "map": {
    "lat": 50.0755,
    "lng": 14.4378,
    "zoom": 13,
    "legend": [
      {"c": "#C4704B", "l": "주요 명소"},
      {"c": "#7A9A7E", "l": "로컬 골목"}
    ],
    "pins": [
      {
        "lat": 50.0905,
        "lng": 14.4002,
        "color": "#C4704B",
        "num": 1,
        "name": "프라하 성 (Pražský hrad)",
        "time": "오전 9시",
        "note": "세계 최대 면적의 고성. 성 비투스 대성당 스테인드글라스와 황금 소로 골목이 필수 코스."
      },
      {
        "lat": 50.0865,
        "lng": 14.4114,
        "color": "#C4704B",
        "num": 2,
        "name": "카를 교 (Karlův most)",
        "time": "오전 7시",
        "note": "30개 성인상이 늘어선 14세기 석교. 해가 뜰 무렵 빛이 아름답고 인파도 적다."
      },
      {
        "lat": 50.0874,
        "lng": 14.4213,
        "color": "#C4704B",
        "num": 3,
        "name": "구시가지 광장 (Staroměstské náměstí)",
        "time": "오전 11시",
        "note": "15세기 천문 시계와 고딕·바로크 건물이 어우러진 프라하의 심장. 매시 정각 시계 공연 관람 필수."
      },
      {
        "lat": 50.0813,
        "lng": 14.4270,
        "color": "#7A9A7E",
        "num": 4,
        "name": "바츨라프 광장 (Václavské náměstí)",
        "time": "오후 2시",
        "note": "체코 민주화 운동의 역사 현장. 신시가지 중심으로 쇼핑과 카페가 집중된 거리."
      },
      {
        "lat": 50.0902,
        "lng": 14.4181,
        "color": "#7A9A7E",
        "num": 5,
        "name": "조제포프 유대인 지구 (Josefov)",
        "time": "오전 10시",
        "note": "유럽에서 가장 잘 보존된 유대인 지구. 오래된 유대교 회당과 묘지가 역사적 감동을 준다."
      },
      {
        "lat": 50.0994,
        "lng": 14.4191,
        "color": "#7A9A7E",
        "num": 6,
        "name": "레트나 공원 (Letenské sady)",
        "time": "오후 4시",
        "note": "프라하 전경을 가장 아름답게 볼 수 있는 언덕 공원. 현지인 비어가든도 함께 즐길 것."
      },
      {
        "lat": 50.0766,
        "lng": 14.4421,
        "color": "#7A9A7E",
        "num": 7,
        "name": "비노흐라디 (Vinohrady)",
        "time": "오후 5시",
        "note": "현지인이 사는 고급 주택가. 독립 카페와 와인 바, 파베르나 광장 주변 산책이 여유롭다."
      }
    ]
  }
}
