{
  "id": "singapore",
  "name": "싱가포르",
  "country": "싱가포르",
  "description": "중국·말레이·인도·영국 문화가 층층이 쌓인 다민족 도시국가로, 세계 최고 수준의 청결함과 인프라, 그리고 호커센터의 저렴한 미식이 공존한다. 가든스 바이 더 베이의 슈퍼트리와 마리나 베이 샌즈 야경은 싱가포르만의 압도적 비전이다.",
  "seasons": {
    "spring": {"icon": "🌸", "text": "3~5월 건기로 야외 활동에 적합하다. 식물원 나초드 난초 센터와 가든스 바이 더 베이를 탐방하기 좋은 계절."},
    "summer": {"icon": "☀️", "text": "6~8월 리틀인디아 힌두 축제와 중국계 빅토리 데이 행사가 열린다. 야외 루프탑 수영장을 즐기기 좋다."},
    "autumn": {"icon": "🍂", "text": "9~10월 F1 싱가포르 그랑프리가 열려 마리나 베이 서킷에서 스피드와 화려한 야경을 동시에 즐길 수 있다."},
    "winter": {"icon": "❄️", "text": "11~12월 디파발리(힌두 빛의 축제)와 크리스마스 기간 오차드 로드 조명이 화려하며, 연말 카운트다운 불꽃놀이가 마리나 베이를 수놓는다."}
  },
  "senses": {
    "sight": "마리나 베이 샌즈 인피니티 풀에서 내려다보는 싱가포르 스카이라인과 가든스 바이 더 베이 슈퍼트리 야간 조명 쇼",
    "sound": "호커센터에서 들려오는 웍 불꽃 소리와 다양한 언어가 뒤섞인 싱글리시(Singlish) 대화 소리",
    "smell": "맥스웰 푸드센터의 치킨라이스 육수 향과 리틀인디아 향신료 가게에서 풍기는 강황과 커리 향기"
  },
  "map": {
    "lat": 1.3521,
    "lng": 103.8198,
    "zoom": 13,
    "legend": [
      {"c": "#C4704B", "l": "주요 명소"},
      {"c": "#7A9A7E", "l": "로컬 골목"}
    ],
    "pins": [
      {
        "lat": 1.2838,
        "lng": 103.8611,
        "color": "#C4704B",
        "num": 1,
        "name": "마리나 베이 샌즈 (Marina Bay Sands)",
        "time": "오후 7시",
        "note": "57층 스카이파크 전망대에서 싱가포르 최고 야경 감상. 저녁 8~9시 스펙트라 라이트 쇼가 무료."
      },
      {
        "lat": 1.2816,
        "lng": 103.8636,
        "color": "#C4704B",
        "num": 2,
        "name": "가든스 바이 더 베이 (Gardens by the Bay)",
        "time": "오후 7시 30분",
        "note": "슈퍼트리 그로브 야간 조명 쇼와 클라우드 포레스트 실내 식물원이 필수 코스."
      },
      {
        "lat": 1.2834,
        "lng": 103.8443,
        "color": "#7A9A7E",
        "num": 3,
        "name": "차이나타운 (Chinatown)",
        "time": "오전 11시",
        "note": "스리 마리암만 힌두 사원과 불교 아이 박물관이 공존하는 문화 융합 지구. 호커 음식이 저렴하다."
      },
      {
        "lat": 1.3026,
        "lng": 103.8583,
        "color": "#7A9A7E",
        "num": 4,
        "name": "아랍 스트리트 (Arab Street)",
        "time": "오후 3시",
        "note": "술탄 모스크와 이슬람 패브릭 가게, 힙한 카페가 공존하는 캄퐁글람 지구의 중심."
      },
      {
        "lat": 1.2993,
        "lng": 103.8556,
        "color": "#7A9A7E",
        "num": 5,
        "name": "부기스 스트리트 (Bugis Street)",
        "time": "오후 2시",
        "note": "저렴한 의류와 기념품 쇼핑의 천국. 부기스 정션 쇼핑몰과 연계해 쇼핑을 즐길 것."
      },
      {
        "lat": 1.3071,
        "lng": 103.8376,
        "color": "#7A9A7E",
        "num": 6,
        "name": "뉴턴 호커센터 (Newton Food Centre)",
        "time": "오후 6시",
        "note": "싱가포르식 새우구이 칠리크랩과 사테이, 커리를 현지 가격에 즐길 수 있는 대표 호커센터."
      },
      {
        "lat": 1.2901,
        "lng": 103.8465,
        "color": "#C4704B",
        "num": 7,
        "name": "클락 키 (Clarke Quay)",
        "time": "오후 8시",
        "note": "싱가포르 리버 강변 나이트라이프 중심지. 루프탑 바와 레스토랑이 저녁에 더욱 활기차다."
      }
    ]
  }
}
