{
  "id": "taipei",
  "name": "타이베이",
  "country": "대만",
  "description": "야시장과 버블티, 수천 개의 신당이 공존하는 활기찬 대만의 수도로, 한국·일본·중국 문화가 융합된 독특한 문화를 지닌다. 저렴한 물가와 친절한 현지인 덕분에 아시아 여행자들 사이에서 꾸준히 사랑받는 도시다.",
  "seasons": {
    "spring": {"icon": "🌸", "text": "3~4월 양밍산 국립공원 벚꽃과 진달래 시즌으로 타이베이 근교 꽃구경 트레킹이 활발하다."},
    "summer": {"icon": "☀️", "text": "5~9월 무덥고 습하지만 야시장 문화가 절정을 이룬다. 용강제 망고 빙수와 바나나 가게들이 더위를 식혀준다."},
    "autumn": {"icon": "🍂", "text": "10~11월 타이베이 방문 최적기. 선선한 날씨에 지우펀 야경 탐방과 타이베이 101 전망대 방문이 쾌적하다."},
    "winter": {"icon": "❄️", "text": "12~2월 베이터우 온천과 원산 온천에서 따뜻하게 몸을 녹이며, 전통 딤섬과 뜨끈한 볶음밥 등 겨울 음식을 즐길 것."}
  },
  "senses": {
    "sight": "지우펀 빨간 등불이 켜진 낡은 계단 골목과 비 내리는 밤 안개 속 아름다운 해안 마을의 신비로운 풍경",
    "sound": "스린 야시장의 활기찬 상인 목소리와 오토바이 엔진 소리, 사원 입구 향불 연기 속 목탁 소리",
    "smell": "야시장 냄비에서 끓어오르는 루육판(돼지 덮밥) 간장 향과 달콤한 버블티 타피오카 시럽 냄새"
  },
  "map": {
    "lat": 25.0330,
    "lng": 121.5654,
    "zoom": 13,
    "legend": [
      {"c": "#C4704B", "l": "주요 명소"},
      {"c": "#7A9A7E", "l": "로컬 골목"}
    ],
    "pins": [
      {
        "lat": 25.1093,
        "lng": 121.8443,
        "color": "#C4704B",
        "num": 1,
        "name": "지우펀 (九份)",
        "time": "오후 4시",
        "note": "영화 '센과 치히로의 행방불명'의 배경으로 알려진 산악 마을. 등불 켜진 저녁이 가장 아름답다."
      },
      {
        "lat": 25.0881,
        "lng": 121.5241,
        "color": "#7A9A7E",
        "num": 2,
        "name": "스린 야시장 (士林夜市)",
        "time": "오후 6시",
        "note": "타이베이 최대 야시장. 굴전·닭튀김·솜사탕 아이스크림 등 대만 야시장 먹거리의 집결지."
      },
      {
        "lat": 25.0339,
        "lng": 121.5645,
        "color": "#C4704B",
        "num": 3,
        "name": "타이베이 101 (Taipei 101)",
        "time": "오후 6시",
        "note": "508m의 대나무 모양 초고층 빌딩. 89층 실내 전망대에서 타이베이 야경을 감상할 것."
      },
      {
        "lat": 25.0291,
        "lng": 121.5360,
        "color": "#7A9A7E",
        "num": 4,
        "name": "다안 삼림 공원 (大安森林公園)",
        "time": "오전 9시",
        "note": "'타이베이의 허파'라 불리는 도심 공원. 현지 시민들의 태극권과 조깅 모습이 활기차다."
      },
      {
        "lat": 25.0248,
        "lng": 121.5306,
        "color": "#7A9A7E",
        "num": 5,
        "name": "용강제 (永康街)",
        "time": "오전 11시",
        "note": "버블티 발상지 춘수당 본점과 딘타이펑 본점이 있는 타이베이 최고의 미식 거리."
      },
      {
        "lat": 25.0423,
        "lng": 121.5505,
        "color": "#7A9A7E",
        "num": 6,
        "name": "동취 (東區)",
        "time": "오후 3시",
        "note": "타이베이 최고의 쇼핑·카페 지구. 충샤오 둔화역 주변 독립 카페와 편집숍이 밀집해 있다."
      },
      {
        "lat": 25.0370,
        "lng": 121.4997,
        "color": "#C4704B",
        "num": 7,
        "name": "롱산사 (龍山寺)",
        "time": "오전 8시",
        "note": "1738년 창건된 타이베이에서 가장 오래된 사원. 새벽 향불 피우는 신자들의 모습이 경건하다."
      }
    ]
  }
}
