{
  "id": "tokyo",
  "name": "도쿄",
  "country": "일본",
  "description": "전통과 첨단이 공존하는 일본의 수도로, 활기찬 거리와 다채로운 음식 문화가 여행자를 매료시킨다. 세계 최대의 도시 중 하나로 결코 잠들지 않는 에너지가 넘친다.",
  "seasons": {
    "spring": {"icon": "🌸", "text": "3월 말~4월 초 우에노 공원과 신주쿠 교엔의 벚꽃이 만개하는 시기로, 하나미(꽃구경) 피크닉을 즐기기 최적이다."},
    "summer": {"icon": "☀️", "text": "7~8월은 무덥고 습하지만 스미다가와 불꽃놀이와 아사쿠사 삼바 카니발 등 도심 여름 축제가 활발하게 열린다."},
    "autumn": {"icon": "🍂", "text": "10~11월에는 신주쿠 교엔과 시즌지 사원 주변 단풍이 절정을 이루며, 선선한 날씨 덕에 도보 여행에 가장 좋은 계절이다."},
    "winter": {"icon": "❄️", "text": "12월 도심 일루미네이션과 야경이 아름다우며, 오다이바와 마루노우치의 크리스마스 조명 거리 산책을 추천한다."}
  },
  "senses": {
    "sight": "시부야 스크램블 교차로를 가득 메운 수천 명의 인파와 형형색색 네온사인이 빗속에서도 빛나는 야경",
    "sound": "아사쿠사 도착을 알리는 절의 종소리와 야타이 상인들의 활기찬 호객 소리가 뒤섞인 소음",
    "smell": "츠키지 시장 골목에서 풍겨오는 갓 구운 달걀말이와 짭조름한 간장 향기"
  },
  "map": {
    "lat": 35.6762,
    "lng": 139.6503,
    "zoom": 13,
    "legend": [
      {"c": "#C4704B", "l": "주요 명소"},
      {"c": "#7A9A7E", "l": "로컬 골목"}
    ],
    "pins": [
      {
        "lat": 35.7148,
        "lng": 139.7967,
        "color": "#C4704B",
        "num": 1,
        "name": "아사쿠사지 (浅草寺)",
        "time": "오전 8시",
        "note": "도쿄에서 가장 오래된 사원으로 나카미세 쇼핑 거리와 함께 즐길 수 있다."
      },
      {
        "lat": 35.6654,
        "lng": 139.7707,
        "color": "#7A9A7E",
        "num": 2,
        "name": "츠키지 장외시장 (築地場外市場)",
        "time": "오전 7시",
        "note": "신선한 해산물 덮밥과 계란말이 꼬치를 아침 일찍 맛볼 수 있는 도쿄 최고의 먹거리 골목."
      },
      {
        "lat": 35.6595,
        "lng": 139.7004,
        "color": "#C4704B",
        "num": 3,
        "name": "시부야 스크램블 교차로 (渋谷スクランブル交差点)",
        "time": "오후 6시",
        "note": "세계에서 가장 붐비는 교차로로, 스크램블 스퀘어 전망대에서 내려다보는 야경이 압도적이다."
      },
      {
        "lat": 35.6851,
        "lng": 139.7100,
        "color": "#7A9A7E",
        "num": 4,
        "name": "신주쿠 교엔 (新宿御苑)",
        "time": "오전 10시",
        "note": "도심 속 넓은 정원으로 봄 벚꽃과 가을 단풍 명소. 도시락 피크닉에 제격이다."
      },
      {
        "lat": 35.6650,
        "lng": 139.7121,
        "color": "#C4704B",
        "num": 5,
        "name": "오모테산도 (表参道)",
        "time": "오후 2시",
        "note": "세계적인 명품 브랜드와 감각적인 카페가 늘어선 도쿄의 샹젤리제."
      },
      {
        "lat": 35.7141,
        "lng": 139.7741,
        "color": "#7A9A7E",
        "num": 6,
        "name": "우에노 공원 (上野公園)",
        "time": "오전 11시",
        "note": "도쿄 국립박물관과 동물원, 봄 벚꽃 명소를 품은 도쿄 대표 공원."
      },
      {
        "lat": 35.6604,
        "lng": 139.7292,
        "color": "#C4704B",
        "num": 7,
        "name": "롯폰기 힐즈 (六本木ヒルズ)",
        "time": "오후 7시",
        "note": "현대미술관 모리 아트 센터와 함께 도쿄 전경을 즐길 수 있는 복합 문화 공간."
      }
    ]
  }
}
